[
    {
        "state": "თბილისი",
        "cities": [
            {
                "name": "თბილისი",
                "coords": { "lat": 41.6938, "lng": 44.8015 }
            }
        ]
    },
    {
        "state": "აჭარა",
        "cities": [
            {
                "name": "ბათუმი",
                "coords": { "lat": 41.6461, "lng": 41.6405 }
            },
            {
                "name": "ქობულეთი",
                "coords": { "lat": 41.8160, "lng": 41.7838 }
            },
            {
                "name": "ხელვაჩაური",
                "coords": { "lat": 41.5825, "lng": 41.6546 }
            },
            {
                "name": "გონიო",
                "coords": { "lat": 41.5605, "lng": 41.5711 }
            },
            {
                "name": "ხულო",
                "coords": { "lat": 41.6461, "lng": 42.3111 }
            },
            {
                "name": "ჯავა",
                "coords": { "lat": 42.3894, "lng": 43.9249 }
            },
            {
                "name": "მახინჯაური",
                "coords": { "lat": 41.6768, "lng": 41.6969 }
            },
            {
                "name": "სარფი",
                "coords": { "lat": 41.5210, "lng": 41.5527 }
            },
            {
                "name": "ქედა",
                "coords": { "lat": 41.5976, "lng": 41.9452 }
            },
            {
                "name": "ჩაქვი",
                "coords": { "lat": 41.7307, "lng": 41.7360 }
            }
        ]
    },
    {
        "state": "კახეთი",
        "cities": [
            {
                "name": "თელავი",
                "coords": { "lat": 41.9185, "lng": 45.4777 }
            },
            {
                "name": "სიღნაღი",
                "coords": { "lat": 41.6111, "lng": 45.9271 }
            },
            {
                "name": "წნორი",
                "coords": { "lat": 41.6160, "lng": 45.9704 }
            },
            {
                "name": "საგარეჯო",
                "coords": { "lat": 41.7254, "lng": 45.3351 }
            }, 
            {
                "name": "ლაგოდეხი",
                "coords": { "lat": 41.8186, "lng": 46.2781 }
            },
            {
                "name": "ყვარელი",
                "coords": { "lat": 41.9484, "lng": 45.8148 }
            },
            {
                "name": "გურჯაანი",
                "coords": { "lat": 41.7439, "lng": 45.7894 }
            },
            {
                "name": "ახმეტა",
                "coords": { "lat": 42.0385, "lng": 45.2068 }
            },
            {
                "name": "დედოფლისწყარო",
                "coords": { "lat": 41.4672, "lng": 46.1175 }
            }
        ]
    },
    {
        "state": "ქვემო ქართლი",
        "cities": [
            {
                "name": "რუსთავი",
                "coords": { "lat": 41.5434, "lng": 45.0108 }
            },
            {
                "name": "მარტყოფი",
                "coords": { "lat": 41.7744, "lng": 45.0216 }
            },
            {
                "name": "ბოლნისი",
                "coords": { "lat": 41.4494, "lng": 44.5489 }
            },
            {
                "name": "გარდაბანი",
                "coords": { "lat": 41.4585, "lng": 45.0913 }
            },
            {
                "name": "დმანისი",
                "coords": { "lat": 41.3298, "lng": 44.2073 }
            },
            {
                "name": "თეთრიწყარო",
                "coords": { "lat": 41.5423, "lng": 44.4726 }
            },
            {
                "name": "მარნეული",
                "coords": { "lat": 41.4689, "lng": 44.7851 }
            },
            {
                "name": "წალკა",
                "coords": { "lat": 41.5980, "lng": 44.0947 }
            },
            {
                "name": "მანგლისი",
                "coords": { "lat": 41.6969, "lng": 44.3735 }
            }
        ]
    },
    {
        "state": "შიდა ქართლი",
        "cities": [
            {
                "name": "გორი",
                "coords": { "lat": 41.9854, "lng": 44.1084 }
            },
            {
                "name": "კასპი",
                "coords": { "lat": 41.9260, "lng": 44.4245 }
            },
            {
                "name": "ქარელი",
                "coords": { "lat": 42.0206, "lng": 43.8792 }
            },
            {
                "name": "ხაშური",
                "coords": { "lat": 41.9838, "lng": 43.5866 }
            },
            {
                "name": "აგარა",
                "coords": { "lat": 42.0388, "lng": 43.8243 }
            },
            {
                "name": "სურამი",
                "coords": { "lat": 42.0265, "lng": 43.5526 }
            }
        ]
    },
    {
        "state": "გურია",
        "cities": [
            {
                "name": "ოზურგეთი",
                "coords": { "lat": 41.9208, "lng": 41.9931 }
            },
            {
                "name": "ჩოხატაური",
                "coords": { "lat": 42.0183, "lng": 42.2366 }
            },
            {
                "name": "ლანჩხუთი",
                "coords": { "lat": 42.0902, "lng": 42.0360 }
            },
            {
                "name": "ბახმარო",
                "coords": { "lat": 41.8510, "lng": 42.3284 }
            },
            {
                "name": "ურეკი",
                "coords": { "lat": 41.9952, "lng": 41.7707 }
            },
            {
                "name": "შეკვეთილი",
                "coords": { "lat": 41.9271, "lng": 41.7675 }
            }
        ]
    },
    {
        "state": "იმერეთი",
        "cities": [
            {
                "name": "სამტრედია",
                "coords": { "lat": 42.1599, "lng": 42.3368 }
            },
            {
                "name": "საირმე",
                "coords": { "lat": 41.9056, "lng": 42.7454 }
            },
            {
                "name": "შორაპანი",
                "coords": { "lat": 42.0944, "lng": 43.0803 }
            },
            {
                "name": "ხარაგაული",
                "coords": { "lat": 42.0223, "lng": 43.1937 }
            },
            {
                "name": "ზესტაფონი",
                "coords": { "lat": 42.1083, "lng": 43.0375 }
            },
            {
                "name": "ქუთაისი",
                "coords": { "lat": 42.2718, "lng": 42.7060 }
            },
            {
                "name": "ჭიათურა",
                "coords": { "lat": 42.2904, "lng": 43.2811 }
            },
            {
                "name": "ბაღდათი",
                "coords": { "lat": 42.0732, "lng": 42.8212 }
            },
            {
                "name": "ვანი",
                "coords": { "lat": 42.0890, "lng": 42.5045 }
            },
            {
                "name": "მანგლისი",
                "coords": { "lat": 41.6969, "lng": 44.3735 }
            },
            {
                "name": "თერჯოლა",
                "coords": { "lat": 42.1828, "lng": 42.9686 }
            },
            {
                "name": "საჩხერე",
                "coords": { "lat": 42.3420, "lng": 43.4106 }
            },
            {
                "name": "ტყიბული",
                "coords": { "lat": 42.3414, "lng": 42.9942 }
            },
            {
                "name": "წყალტუბო",
                "coords": { "lat": 42.3285, "lng": 42.6004 }
            },
            {
                "name": "ხონი",
                "coords": { "lat": 42.3149, "lng": 42.4149 }
            }
        ]
    },
    {
        "state": "სამცხე ჯავახეთი",
        "cities": [
            {
                "name": "ბორჯომი",
                "coords": { "lat": 41.8400, "lng": 43.3908 }
            },
            {
                "name": "წაღვერი",
                "coords": { "lat": 41.8012, "lng": 43.4815 }
            },
            {
                "name": "ასპინძა",
                "coords": { "lat": 41.5741, "lng": 43.2497 }
            },
            {
                "name": "ბაკურიანი",
                "coords": { "lat": 41.7510, "lng": 43.5292 }
            },
            {
                "name": "ადიგენი",
                "coords": { "lat": 41.6765, "lng": 42.7086 }
            },
            {
                "name": "ვალე",
                "coords": { "lat": 41.6138, "lng": 42.8762 }
            },
            {
                "name": "ახალქალაქი",
                "coords": { "lat": 41.4025, "lng": 43.4872 }
            },
            {
                "name": "ახალციხე",
                "coords": { "lat": 41.6434, "lng": 42.9934 }
            },
            {
                "name": "ნინოწმინდა",
                "coords": { "lat": 41.2714, "lng": 43.5879 }
            },
            {
                "name": "ახალდაბა",
                "coords": { "lat": 41.9254, "lng": 43.4908 }
            }
        ]
    },
    {
        "state": "სამეგრელო-ზემო სვანეთი",
        "cities": [
            {
                "name": "მესტია",
                "coords": { "lat": 43.0335, "lng": 42.6895 }
            },
            {
                "name": "ჩხოროწყუ",
                "coords": { "lat": 42.5219, "lng": 42.1277 }
            },
            {
                "name": "აბაშა",
                "coords": { "lat": 42.2046, "lng": 42.2030 }
            },
            {
                "name": "ანაკლია",
                "coords": { "lat": 42.4003, "lng": 41.5817 }
            },
            {
                "name": "სენაკი",
                "coords": { "lat": 42.2696, "lng": 42.0657 }
            },
            {
                "name": "ზუგდიდი",
                "coords": { "lat": 42.5091, "lng": 41.8670 }
            },
            {
                "name": "მარტვილი",
                "coords": { "lat": 42.4232, "lng": 42.3811 }
            },
            {
                "name": "ფოთი",
                "coords": { "lat": 42.1427, "lng": 41.6738 }
            },
            {
                "name": "წალენჯიხა",
                "coords": { "lat": 42.6215, "lng": 42.0660 }
            },
            {
                "name": "ხობი",
                "coords": { "lat": 42.3195, "lng": 41.9000 }
            },
            {
                "name": "ჯვარი",
                "coords": { "lat": 42.7091, "lng": 42.0491 }
            }
        ]
    },
    {
        "state": "რაჭა ლეჩხუმი",
        "cities": [
            {
                "name": "ამბროლაური",
                "coords": { "lat": 42.5145, "lng": 43.1458 }
            },
            {
                "name": "ონი",
                "coords": { "lat": 42.5779, "lng": 43.4351 }
            },
            {
                "name": "ცაგერი",
                "coords": { "lat": 42.6482, "lng": 42.7649 }
            },
            {
                "name": "ლენტეხი",
                "coords": { "lat": 42.7932, "lng": 42.7187 }
            }
        ]
    },
    {
        "state": "მცხეთა მთიანეთი",
        "cities": [
            {
                "name": "სტეფაწმინდა",
                "coords": { "lat": 42.6583, "lng": 44.6410 }
            },
            {
                "name": "წეროვანი",
                "coords": { "lat": 41.8788, "lng": 44.6814 }
            },
            {
                "name": "საგურამო",
                "coords": { "lat": 41.9006, "lng": 44.7613 }
            },
            {
                "name": "გუდაური",
                "coords": { "lat": 42.4755, "lng": 44.4805 }
            },
            {
                "name": "ნატახტარი",
                "coords": { "lat": 41.9194, "lng": 44.7259 }
            },
            {
                "name": "აბასთუმანი",
                "coords": { "lat": 41.7556, "lng": 42.8315 }
            },
            {
                "name": "სიონი",
                "coords": { "lat": 41.6913, "lng": 44.8075 }
            },
            {
                "name": "მცხეთა",
                "coords": { "lat": 41.8412, "lng": 44.7074 }
            },
            {
                "name": "დუშეთი",
                "coords": { "lat": 42.0870, "lng": 44.6948 }
            },
            {
                "name": "ფასანაური",
                "coords": { "lat": 42.3522, "lng": 44.6875 }
            },
            {
                "name": "თიანეთი",
                "coords": { "lat": 42.1119, "lng": 44.9673 }
            }
        ]
    }
]
